Latitude,Longitude,City
4.711,-74.0721,Bogota
6.2476,-75.5658,Medellin
3.4516,-76.532,Cali
11.0041,-74.807,Barranquilla
10.3932,-75.4832,Cartagena
1.806667,-78.764722,Tumaco
-2.19,-79.8875,Guayaquil
0.22,-78.5125,Quito
0.966667,-79.652778,Esmeraldas
0.362678,-78.130667,Ibarra
0.811667,-77.718611,Tulcan
-1.673056,-78.648333,Riobamba